{
"type": "FeatureCollection",
"name": "fdny_stations",
"crs": { "type": "name", "properties": { "name": "urn:ogc:def:crs:OGC:1.3:CRS84" } },
"features": [
{ "type": "Feature", "properties": { "FacilityName": "Engine 4\/Ladder 15", "FacilityAddress": "42 South Street", "Borough": "Manhattan", "Latitude": 40.703466, "Longitude": -74.007538, "Community Board": 1, "Census Tract": 7 }, "geometry": { "type": "Point", "coordinates": [ -74.007538, 40.703466 ] } },
{ "type": "Feature", "properties": { "FacilityName": "Engine 10\/Ladder 10", "FacilityAddress": "124 Liberty Street", "Borough": "Manhattan", "Latitude": 40.710072, "Longitude": -74.012523, "Community Board": 1, "Census Tract": 13 }, "geometry": { "type": "Point", "coordinates": [ -74.012523, 40.710072 ] } },
{ "type": "Feature", "properties": { "FacilityName": "Engine 6", "FacilityAddress": "49 Beekman Street", "Borough": "Manhattan", "Latitude": 40.710048, "Longitude": -74.005245, "Community Board": 1, "Census Tract": 1501 }, "geometry": { "type": "Point", "coordinates": [ -74.005245, 40.710048 ] } },
{ "type": "Feature", "properties": { "FacilityName": "Engine 7\/Ladder 1\/Battalion 1\/Manhattan Borough Command", "FacilityAddress": "100-104 Duane Street", "Borough": "Manhattan", "Latitude": 40.715463, "Longitude": -74.005938, "Community Board": 1, "Census Tract": 33 }, "geometry": { "type": "Point", "coordinates": [ -74.005938, 40.715463 ] } },
{ "type": "Feature", "properties": { "FacilityName": "Ladder 8", "FacilityAddress": "14 North Moore Street", "Borough": "Manhattan", "Latitude": 40.719759, "Longitude": -74.006678, "Community Board": 1, "Census Tract": 33 }, "geometry": { "type": "Point", "coordinates": [ -74.006678, 40.719759 ] } },
{ "type": "Feature", "properties": { "FacilityName": "Engine 9\/Ladder 6", "FacilityAddress": "75 Canal Street", "Borough": "Manhattan", "Latitude": 40.715213, "Longitude": -73.992901, "Community Board": 3, "Census Tract": 16 }, "geometry": { "type": "Point", "coordinates": [ -73.992901, 40.715213 ] } },
{ "type": "Feature", "properties": { "FacilityName": "Engine 15\/Ladder 18\/Battalion 4", "FacilityAddress": "25 Pitt Street", "Borough": "Manhattan", "Latitude": 40.716395, "Longitude": -73.983478, "Community Board": 3, "Census Tract": 12 }, "geometry": { "type": "Point", "coordinates": [ -73.983478, 40.716395 ] } },
{ "type": "Feature", "properties": { "FacilityName": "Engine 28\/Ladder 11", "FacilityAddress": "222 East 2nd Street", "Borough": "Manhattan", "Latitude": 40.721682, "Longitude": -73.982622, "Community Board": 3, "Census Tract": 2202 }, "geometry": { "type": "Point", "coordinates": [ -73.982622, 40.721682 ] } },
{ "type": "Feature", "properties": { "FacilityName": "Engine 5", "FacilityAddress": "340 East 14th Street", "Borough": "Manhattan", "Latitude": 40.731752, "Longitude": -73.983536, "Community Board": 3, "Census Tract": 40 }, "geometry": { "type": "Point", "coordinates": [ -73.983536, 40.731752 ] } },
{ "type": "Feature", "properties": { "FacilityName": "Engine 55", "FacilityAddress": "363 Broome Street", "Borough": "Manhattan", "Latitude": 40.720033, "Longitude": -73.995689, "Community Board": 2, "Census Tract": 41 }, "geometry": { "type": "Point", "coordinates": [ -73.995689, 40.720033 ] } },
{ "type": "Feature", "properties": { "FacilityName": "Ladder 20\/Division 1", "FacilityAddress": "253 Lafayette Street", "Borough": "Manhattan", "Latitude": 40.723072, "Longitude": -73.996804, "Community Board": 2, "Census Tract": 43 }, "geometry": { "type": "Point", "coordinates": [ -73.996804, 40.723072 ] } },
{ "type": "Feature", "properties": { "FacilityName": "Engine 24\/Ladder 5\/Battalion 2", "FacilityAddress": "227-29 6th Avenue", "Borough": "Manhattan", "Latitude": 40.727914, "Longitude": -74.003157, "Community Board": 2, "Census Tract": 37 }, "geometry": { "type": "Point", "coordinates": [ -74.003157, 40.727914 ] } },
{ "type": "Feature", "properties": { "FacilityName": "Engine 33\/Ladder 9", "FacilityAddress": "42 Great Jones Street", "Borough": "Manhattan", "Latitude": 40.726815, "Longitude": -73.992643, "Community Board": 2, "Census Tract": 5502 }, "geometry": { "type": "Point", "coordinates": [ -73.992643, 40.726815 ] } },
{ "type": "Feature", "properties": { "FacilityName": "Ladder 3\/Battalion 6", "FacilityAddress": "108 East 13th Street", "Borough": "Manhattan", "Latitude": 40.733329, "Longitude": -73.989421, "Community Board": 3, "Census Tract": 42 }, "geometry": { "type": "Point", "coordinates": [ -73.989421, 40.733329 ] } },
{ "type": "Feature", "properties": { "FacilityName": "Squad 18", "FacilityAddress": "132 West 10th Street", "Borough": "Manhattan", "Latitude": 40.734625, "Longitude": -74.000346, "Community Board": 2, "Census Tract": 71 }, "geometry": { "type": "Point", "coordinates": [ -74.000346, 40.734625 ] } },
{ "type": "Feature", "properties": { "FacilityName": "Engine 34\/Ladder 21", "FacilityAddress": "440 West 38th Street", "Borough": "Manhattan", "Latitude": 40.756635, "Longitude": -73.996217, "Community Board": 4, "Census Tract": 111 }, "geometry": { "type": "Point", "coordinates": [ -73.996217, 40.756635 ] } },
{ "type": "Feature", "properties": { "FacilityName": "Engine 26", "FacilityAddress": "220 West 37th Street", "Borough": "Manhattan", "Latitude": 40.753239, "Longitude": -73.990078, "Community Board": 5, "Census Tract": 109 }, "geometry": { "type": "Point", "coordinates": [ -73.990078, 40.753239 ] } },
{ "type": "Feature", "properties": { "FacilityName": "Engine 3\/Ladder 12\/Battalion 7", "FacilityAddress": "150 West 19th Street", "Borough": "Manhattan", "Latitude": 40.741044, "Longitude": -73.996041, "Community Board": 4, "Census Tract": 87 }, "geometry": { "type": "Point", "coordinates": [ -73.996041, 40.741044 ] } },
{ "type": "Feature", "properties": { "FacilityName": "Engine 1\/Ladder 24", "FacilityAddress": "142-46 West 31st Street", "Borough": "Manhattan", "Latitude": 40.74843, "Longitude": -73.990447, "Community Board": 5, "Census Tract": 101 }, "geometry": { "type": "Point", "coordinates": [ -73.990447, 40.74843 ] } },
{ "type": "Feature", "properties": { "FacilityName": "Engine 14", "FacilityAddress": "14 East 18th Street", "Borough": "Manhattan", "Latitude": 40.738143, "Longitude": -73.990964, "Community Board": 5, "Census Tract": 52 }, "geometry": { "type": "Point", "coordinates": [ -73.990964, 40.738143 ] } },
{ "type": "Feature", "properties": { "FacilityName": "Engine 16 \/ Ladder 7 ", "FacilityAddress": "234 East 29th Street", "Borough": "Manhattan", "Latitude": 40.742209, "Longitude": -73.979535, "Community Board": 6, "Census Tract": 66 }, "geometry": { "type": "Point", "coordinates": [ -73.979535, 40.742209 ] } },
{ "type": "Feature", "properties": { "FacilityName": "Engine 21", "FacilityAddress": "238 East 40th Street", "Borough": "Manhattan", "Latitude": 40.748845, "Longitude": -73.973888, "Community Board": 6, "Census Tract": 88 }, "geometry": { "type": "Point", "coordinates": [ -73.973888, 40.748845 ] } },
{ "type": "Feature", "properties": { "FacilityName": "Engine 54\/Ladder 4\/Battalion 9", "FacilityAddress": "782 8th Avenue", "Borough": "Manhattan", "Latitude": 40.760792, "Longitude": -73.987182, "Community Board": 5, "Census Tract": 125 }, "geometry": { "type": "Point", "coordinates": [ -73.987182, 40.760792 ] } },
{ "type": "Feature", "properties": { "FacilityName": "Engine 23", "FacilityAddress": "215 West 58th Street", "Borough": "Manhattan", "Latitude": 40.766544, "Longitude": -73.98035, "Community Board": 5, "Census Tract": 137 }, "geometry": { "type": "Point", "coordinates": [ -73.98035, 40.766544 ] } },
{ "type": "Feature", "properties": { "FacilityName": "Rescue 1", "FacilityAddress": "530 West 43rd Street", "Borough": "Manhattan", "Latitude": 40.760892, "Longitude": -73.996405, "Community Board": 4, "Census Tract": 129 }, "geometry": { "type": "Point", "coordinates": [ -73.996405, 40.760892 ] } },
{ "type": "Feature", "properties": { "FacilityName": "Engine 40\/Ladder 35", "FacilityAddress": "131 Amsterdam Avenue  ", "Borough": "Manhattan", "Latitude": 40.774505, "Longitude": -73.984619, "Community Board": 7, "Census Tract": 149 }, "geometry": { "type": "Point", "coordinates": [ -73.984619, 40.774505 ] } },
{ "type": "Feature", "properties": { "FacilityName": "Ladder 25\/District Office 4\/Division 3", "FacilityAddress": "205-207 West 77th Street", "Borough": "Manhattan", "Latitude": 40.781992, "Longitude": -73.979627, "Community Board": 7, "Census Tract": 163 }, "geometry": { "type": "Point", "coordinates": [ -73.979627, 40.781992 ] } },
{ "type": "Feature", "properties": { "FacilityName": "Engine 74", "FacilityAddress": "120 West 83rd Street ", "Borough": "Manhattan", "Latitude": 40.784881, "Longitude": -73.974434, "Community Board": 7, "Census Tract": 169 }, "geometry": { "type": "Point", "coordinates": [ -73.974434, 40.784881 ] } },
{ "type": "Feature", "properties": { "FacilityName": "Engine 65", "FacilityAddress": "33 West 43rd Street", "Borough": "Manhattan", "Latitude": 40.754676, "Longitude": -73.98161, "Community Board": 5, "Census Tract": 96 }, "geometry": { "type": "Point", "coordinates": [ -73.98161, 40.754676 ] } },
{ "type": "Feature", "properties": { "FacilityName": "Engine 8 \/ Ladder 2 \/ Battalion 8", "FacilityAddress": "167 East 51st Street", "Borough": "Manhattan", "Latitude": 40.756812, "Longitude": -73.971142, "Community Board": 6, "Census Tract": 100 }, "geometry": { "type": "Point", "coordinates": [ -73.971142, 40.756812 ] } },
{ "type": "Feature", "properties": { "FacilityName": "Engine 39\/Ladder 16", "FacilityAddress": "157-59 East 67th Street", "Borough": "Manhattan", "Latitude": 40.76696, "Longitude": -73.963856, "Community Board": 8, "Census Tract": 120 }, "geometry": { "type": "Point", "coordinates": [ -73.963856, 40.76696 ] } },
{ "type": "Feature", "properties": { "FacilityName": "Engine 44", "FacilityAddress": "221 East 75th Street", "Borough": "Manhattan", "Latitude": 40.771427, "Longitude": -73.958521, "Community Board": 8, "Census Tract": 134 }, "geometry": { "type": "Point", "coordinates": [ -73.958521, 40.771427 ] } },
{ "type": "Feature", "properties": { "FacilityName": "Engine 22\/Ladder 13\/Battalion 10", "FacilityAddress": "159 East 85th Street", "Borough": "Manhattan", "Latitude": 40.778584, "Longitude": -73.955516, "Community Board": 8, "Census Tract": 14801 }, "geometry": { "type": "Point", "coordinates": [ -73.955516, 40.778584 ] } },
{ "type": "Feature", "properties": { "FacilityName": "Engine 58\/Ladder 26", "FacilityAddress": "1367 5th Avenue", "Borough": "Manhattan", "Latitude": 40.798873, "Longitude": -73.947759, "Community Board": 11, "Census Tract": 184 }, "geometry": { "type": "Point", "coordinates": [ -73.947759, 40.798873 ] } },
{ "type": "Feature", "properties": { "FacilityName": "Engine 53\/Ladder 43", "FacilityAddress": "1836-46 3rd  Avenue", "Borough": "Manhattan", "Latitude": 40.788714, "Longitude": -73.946774, "Community Board": 11, "Census Tract": 166 }, "geometry": { "type": "Point", "coordinates": [ -73.946774, 40.788714 ] } },
{ "type": "Feature", "properties": { "FacilityName": "Engine 91", "FacilityAddress": "242 East 111th Street", "Borough": "Manhattan", "Latitude": 40.794327, "Longitude": -73.941345, "Community Board": 11, "Census Tract": 180 }, "geometry": { "type": "Point", "coordinates": [ -73.941345, 40.794327 ] } },
{ "type": "Feature", "properties": { "FacilityName": "Engine 35\/Ladder 14", "FacilityAddress": "2282 3rd Avenue", "Borough": "Manhattan", "Latitude": 40.803129, "Longitude": -73.936244, "Community Board": 11, "Census Tract": 196 }, "geometry": { "type": "Point", "coordinates": [ -73.936244, 40.803129 ] } },
{ "type": "Feature", "properties": { "FacilityName": "Engine 76\/Ladder 22\/Battalion 11", "FacilityAddress": "145-51 West 100th Street", "Borough": "Manhattan", "Latitude": 40.795924, "Longitude": -73.966726, "Community Board": 7, "Census Tract": 189 }, "geometry": { "type": "Point", "coordinates": [ -73.966726, 40.795924 ] } },
{ "type": "Feature", "properties": { "FacilityName": "Engine 47", "FacilityAddress": "502 West 113th Street", "Borough": "Manhattan", "Latitude": 40.805068, "Longitude": -73.962929, "Community Board": 9, "Census Tract": 199 }, "geometry": { "type": "Point", "coordinates": [ -73.962929, 40.805068 ] } },
{ "type": "Feature", "properties": { "FacilityName": "Engine 59\/Ladder 30", "FacilityAddress": "111 West 133rd Street", "Borough": "Manhattan", "Latitude": 40.813057, "Longitude": -73.942358, "Community Board": 10, "Census Tract": 226 }, "geometry": { "type": "Point", "coordinates": [ -73.942358, 40.813057 ] } },
{ "type": "Feature", "properties": { "FacilityName": "Engine 37\/Ladder 40", "FacilityAddress": "415 West 125th Street", "Borough": "Manhattan", "Latitude": 40.81177, "Longitude": -73.954858, "Community Board": 9, "Census Tract": 20901 }, "geometry": { "type": "Point", "coordinates": [ -73.954858, 40.81177 ] } },
{ "type": "Feature", "properties": { "FacilityName": "Engine 69\/Ladder 28\/Battalion 16", "FacilityAddress": "248 West 143rd Street", "Borough": "Manhattan", "Latitude": 40.821105, "Longitude": -73.941849, "Community Board": 10, "Census Tract": 232 }, "geometry": { "type": "Point", "coordinates": [ -73.941849, 40.821105 ] } },
{ "type": "Feature", "properties": { "FacilityName": "Engine 80\/Ladder 23", "FacilityAddress": "503 West 139th Street", "Borough": "Manhattan", "Latitude": 40.821586, "Longitude": -73.950689, "Community Board": 9, "Census Tract": 225 }, "geometry": { "type": "Point", "coordinates": [ -73.950689, 40.821586 ] } },
{ "type": "Feature", "properties": { "FacilityName": "Engine 84\/Ladder 34", "FacilityAddress": "513 West 161st Street", "Borough": "Manhattan", "Latitude": 40.83564, "Longitude": -73.940856, "Community Board": 12, "Census Tract": 245 }, "geometry": { "type": "Point", "coordinates": [ -73.940856, 40.83564 ] } },
{ "type": "Feature", "properties": { "FacilityName": "Engine 67", "FacilityAddress": "518 West 170th Street", "Borough": "Manhattan", "Latitude": 40.841394, "Longitude": -73.936836, "Community Board": 12, "Census Tract": 253 }, "geometry": { "type": "Point", "coordinates": [ -73.936836, 40.841394 ] } },
{ "type": "Feature", "properties": { "FacilityName": "Engine 93\/Ladder 45\/Battalion 13", "FacilityAddress": "515 West 181st Street", "Borough": "Manhattan", "Latitude": 40.848398, "Longitude": -73.931516, "Community Board": 12, "Census Tract": 269 }, "geometry": { "type": "Point", "coordinates": [ -73.931516, 40.848398 ] } },
{ "type": "Feature", "properties": { "FacilityName": "Engine 95\/Ladder 36", "FacilityAddress": "29 Vermilyea Avenue", "Borough": "Manhattan", "Latitude": 40.864975, "Longitude": -73.925403, "Community Board": 12, "Census Tract": 291 }, "geometry": { "type": "Point", "coordinates": [ -73.925403, 40.864975 ] } },
{ "type": "Feature", "properties": { "FacilityName": "Marine 1", "FacilityAddress": "Little West 12th Street\/Hudson River", "Borough": "Manhattan", "Latitude": null, "Longitude": null, "Community Board": null, "Census Tract": null }, "geometry": null },
{ "type": "Feature", "properties": { "FacilityName": "Engine 60\/Ladder 17\/Battalion 14", "FacilityAddress": "341 East 143rd Street", "Borough": "Bronx", "Latitude": 40.813024, "Longitude": -73.922395, "Community Board": 1, "Census Tract": 41 }, "geometry": { "type": "Point", "coordinates": [ -73.922395, 40.813024 ] } },
{ "type": "Feature", "properties": { "FacilityName": "Squad 41", "FacilityAddress": "330 East 150th Street", "Borough": "Bronx", "Latitude": 40.817502, "Longitude": -73.92037, "Community Board": 1, "Census Tract": 65 }, "geometry": { "type": "Point", "coordinates": [ -73.92037, 40.817502 ] } },
{ "type": "Feature", "properties": { "FacilityName": "Engine 71\/Ladder 55\/Division 6", "FacilityAddress": "720 Melrose Avenue", "Borough": "Bronx", "Latitude": 40.820422, "Longitude": -73.915778, "Community Board": 1, "Census Tract": 69 }, "geometry": { "type": "Point", "coordinates": [ -73.915778, 40.820422 ] } },
{ "type": "Feature", "properties": { "FacilityName": "Engine 50\/Ladder 19", "FacilityAddress": "1155 Washington Avenue", "Borough": "Bronx", "Latitude": 40.829652, "Longitude": -73.907831, "Community Board": 3, "Census Tract": 185 }, "geometry": { "type": "Point", "coordinates": [ -73.907831, 40.829652 ] } },
{ "type": "Feature", "properties": { "FacilityName": "Engine 92\/Ladder 44\/Battalion 17", "FacilityAddress": "1259 Morris Avenue", "Borough": "Bronx", "Latitude": 40.834627, "Longitude": -73.91331, "Community Board": 4, "Census Tract": 17901 }, "geometry": { "type": "Point", "coordinates": [ -73.91331, 40.834627 ] } },
{ "type": "Feature", "properties": { "FacilityName": "EMS Station 17 ", "FacilityAddress": "1080 Ogden Avenue", "Borough": "Bronx", "Latitude": 40.835037, "Longitude": -73.928176, "Community Board": 4, "Census Tract": 193 }, "geometry": { "type": "Point", "coordinates": [ -73.928176, 40.835037 ] } },
{ "type": "Feature", "properties": { "FacilityName": "Engine 68\/Ladder 49", "FacilityAddress": "1160 Ogden Avenue ", "Borough": "Bronx", "Latitude": 40.836711, "Longitude": -73.927231, "Community Board": 4, "Census Tract": 199 }, "geometry": { "type": "Point", "coordinates": [ -73.927231, 40.836711 ] } },
{ "type": "Feature", "properties": { "FacilityName": "EMS Station 26", "FacilityAddress": "1264 Boston Road", "Borough": "Bronx", "Latitude": 40.830637, "Longitude": -73.900986, "Community Board": 3, "Census Tract": 151 }, "geometry": { "type": "Point", "coordinates": [ -73.900986, 40.830637 ] } },
{ "type": "Feature", "properties": { "FacilityName": "Engine 73\/Ladder 42\/Battalion 26", "FacilityAddress": "655 Prospect Avenue", "Borough": "Bronx", "Latitude": 40.815233, "Longitude": -73.903418, "Community Board": 1, "Census Tract": 79 }, "geometry": { "type": "Point", "coordinates": [ -73.903418, 40.815233 ] } },
{ "type": "Feature", "properties": { "FacilityName": "Engine 94\/Ladder 48\/Battalion 3", "FacilityAddress": "1226 Seneca Avenue", "Borough": "Bronx", "Latitude": 40.818659, "Longitude": -73.888853, "Community Board": 2, "Census Tract": 11502 }, "geometry": { "type": "Point", "coordinates": [ -73.888853, 40.818659 ] } },
{ "type": "Feature", "properties": { "FacilityName": "Engine 42", "FacilityAddress": "1781 Monroe Avenue", "Borough": "Bronx", "Latitude": 40.846283, "Longitude": -73.906532, "Community Board": 5, "Census Tract": 22901 }, "geometry": { "type": "Point", "coordinates": [ -73.906532, 40.846283 ] } },
{ "type": "Feature", "properties": { "FacilityName": "Engine 43\/Ladder 59", "FacilityAddress": "1901 Sedgwick Avenue", "Borough": "Bronx", "Latitude": 40.854413, "Longitude": -73.917148, "Community Board": 5, "Census Tract": 247 }, "geometry": { "type": "Point", "coordinates": [ -73.917148, 40.854413 ] } },
{ "type": "Feature", "properties": { "FacilityName": "Rescue 3", "FacilityAddress": "1655 Washington Avenue", "Borough": "Bronx", "Latitude": 40.841012, "Longitude": -73.901458, "Community Board": 3, "Census Tract": 167 }, "geometry": { "type": "Point", "coordinates": [ -73.901458, 40.841012 ] } },
{ "type": "Feature", "properties": { "FacilityName": "Engine 46, Ladder 27", "FacilityAddress": "460 Cross Bronx Expressway", "Borough": "Bronx", "Latitude": 40.844121, "Longitude": -73.900366, "Community Board": 6, "Census Tract": 165 }, "geometry": { "type": "Point", "coordinates": [ -73.900366, 40.844121 ] } },
{ "type": "Feature", "properties": { "FacilityName": "Bronx Borough Command, District Office 6 & 7 ", "FacilityAddress": "451 East 176th Street", "Borough": "Bronx", "Latitude": 40.84622, "Longitude": -73.899437, "Community Board": 6, "Census Tract": 395 }, "geometry": { "type": "Point", "coordinates": [ -73.899437, 40.84622 ] } },
{ "type": "Feature", "properties": { "FacilityName": "Engine 82\/Ladder 31", "FacilityAddress": "1213 Intervale Avenue", "Borough": "Bronx", "Latitude": 40.828518, "Longitude": -73.894951, "Community Board": 3, "Census Tract": 125 }, "geometry": { "type": "Point", "coordinates": [ -73.894951, 40.828518 ] } },
{ "type": "Feature", "properties": { "FacilityName": "Engine 48\/Ladder 56\/Division 7", "FacilityAddress": "2417 Webster Avenue", "Borough": "Bronx", "Latitude": 40.8594, "Longitude": -73.893546, "Community Board": 5, "Census Tract": 39902 }, "geometry": { "type": "Point", "coordinates": [ -73.893546, 40.8594 ] } },
{ "type": "Feature", "properties": { "FacilityName": "Engine 88\/Ladder 38", "FacilityAddress": "2225 Belmont Avenue", "Borough": "Bronx", "Latitude": 40.851495, "Longitude": -73.88775, "Community Board": 6, "Census Tract": 391 }, "geometry": { "type": "Point", "coordinates": [ -73.88775, 40.851495 ] } },
{ "type": "Feature", "properties": { "FacilityName": "Engine 45\/Ladder 58\/Battalion 18", "FacilityAddress": "925 East Tremont Avenue", "Borough": "Bronx", "Latitude": 40.84172, "Longitude": -73.883628, "Community Board": 6, "Census Tract": 363 }, "geometry": { "type": "Point", "coordinates": [ -73.883628, 40.84172 ] } },
{ "type": "Feature", "properties": { "FacilityName": "Engine 75\/Ladder 33\/Battalion 19", "FacilityAddress": "2175 Walton Avenue", "Borough": "Bronx", "Latitude": 40.856116, "Longitude": -73.904179, "Community Board": 5, "Census Tract": 239 }, "geometry": { "type": "Point", "coordinates": [ -73.904179, 40.856116 ] } },
{ "type": "Feature", "properties": { "FacilityName": "Engine 81\/Ladder 46", "FacilityAddress": "3025 Bailey Avenue", "Borough": "Bronx", "Latitude": 40.876728, "Longitude": -73.903539, "Community Board": 8, "Census Tract": 277 }, "geometry": { "type": "Point", "coordinates": [ -73.903539, 40.876728 ] } },
{ "type": "Feature", "properties": { "FacilityName": "Engine 79\/Ladder 37\/Battalion 27", "FacilityAddress": "2928 Briggs Avenue", "Borough": "Bronx", "Latitude": 40.870433, "Longitude": -73.886796, "Community Board": 7, "Census Tract": 40702 }, "geometry": { "type": "Point", "coordinates": [ -73.886796, 40.870433 ] } },
{ "type": "Feature", "properties": { "FacilityName": "  Engine 96\/Ladder 54", "FacilityAddress": "1689 Story Avenue", "Borough": "Bronx", "Latitude": 40.822794, "Longitude": -73.869368, "Community Board": 9, "Census Tract": 46 }, "geometry": { "type": "Point", "coordinates": [ -73.869368, 40.822794 ] } },
{ "type": "Feature", "properties": { "FacilityName": "Engine 64\/Ladder 47\/District Office 7", "FacilityAddress": "1214 Castle Hill Avenue", "Borough": "Bronx", "Latitude": 40.832288, "Longitude": -73.851115, "Community Board": 9, "Census Tract": 92 }, "geometry": { "type": "Point", "coordinates": [ -73.851115, 40.832288 ] } },
{ "type": "Feature", "properties": { "FacilityName": "Engine 90\/Ladder 41", "FacilityAddress": "1843 White Plains Road", "Borough": "Bronx", "Latitude": 40.846244, "Longitude": -73.866503, "Community Board": 11, "Census Tract": 236 }, "geometry": { "type": "Point", "coordinates": [ -73.866503, 40.846244 ] } },
{ "type": "Feature", "properties": { "FacilityName": "Squad 61\/Battalion 20", "FacilityAddress": "1518 Williamsbridge Road", "Borough": "Bronx", "Latitude": 40.844894, "Longitude": -73.846663, "Community Board": 11, "Census Tract": 200 }, "geometry": { "type": "Point", "coordinates": [ -73.846663, 40.844894 ] } },
{ "type": "Feature", "properties": { "FacilityName": "Engine 97", "FacilityAddress": "1454 Astor Avenue", "Borough": "Bronx", "Latitude": 40.859597, "Longitude": -73.844218, "Community Board": 11, "Census Tract": 314 }, "geometry": { "type": "Point", "coordinates": [ -73.844218, 40.859597 ] } },
{ "type": "Feature", "properties": { "FacilityName": "Engine 62\/Ladder 32", "FacilityAddress": "3431 White Plains Road", "Borough": "Bronx", "Latitude": 40.876176, "Longitude": -73.867003, "Community Board": 12, "Census Tract": 374 }, "geometry": { "type": "Point", "coordinates": [ -73.867003, 40.876176 ] } },
{ "type": "Feature", "properties": { "FacilityName": "Engine 38\/Ladder 51", "FacilityAddress": "3446 Eastchester Road", "Borough": "Bronx", "Latitude": 40.877627, "Longitude": -73.846678, "Community Board": 12, "Census Tract": 386 }, "geometry": { "type": "Point", "coordinates": [ -73.846678, 40.877627 ] } },
{ "type": "Feature", "properties": { "FacilityName": "Engine 63\/Ladder 39\/Battalion 15", "FacilityAddress": "755 East 233rd Street", "Borough": "Bronx", "Latitude": 40.892803, "Longitude": -73.855483, "Community Board": 12, "Census Tract": 434 }, "geometry": { "type": "Point", "coordinates": [ -73.855483, 40.892803 ] } },
{ "type": "Feature", "properties": { "FacilityName": "Engine 66\/Ladder 61", "FacilityAddress": "21 Asch Loop West", "Borough": "Bronx", "Latitude": 40.870016, "Longitude": -73.830873, "Community Board": 10, "Census Tract": 46201 }, "geometry": { "type": "Point", "coordinates": [ -73.830873, 40.870016 ] } },
{ "type": "Feature", "properties": { "FacilityName": "Engine 89\/Ladder 50", "FacilityAddress": "2924 Bruckner Boulevard", "Borough": "Bronx", "Latitude": 40.83332, "Longitude": -73.827418, "Community Board": 10, "Census Tract": 164 }, "geometry": { "type": "Point", "coordinates": [ -73.827418, 40.83332 ] } },
{ "type": "Feature", "properties": { "FacilityName": "Engine 72", "FacilityAddress": "3929 East Tremont Avenue", "Borough": "Bronx", "Latitude": 40.821377, "Longitude": -73.818597, "Community Board": 10, "Census Tract": 130 }, "geometry": { "type": "Point", "coordinates": [ -73.818597, 40.821377 ] } },
{ "type": "Feature", "properties": { "FacilityName": "Engine 70\/Ladder 53", "FacilityAddress": "169 Schofield Street", "Borough": "Bronx", "Latitude": 40.845338, "Longitude": -73.784737, "Community Board": 10, "Census Tract": 516 }, "geometry": { "type": "Point", "coordinates": [ -73.784737, 40.845338 ] } },
{ "type": "Feature", "properties": { "FacilityName": "Engine 207\/Ladder 110\/Battalion 31\/Division 11\/Brooklyn Borough Command", "FacilityAddress": "172 Tillary Street", "Borough": "Brooklyn", "Latitude": 40.695983, "Longitude": -73.983159, "Community Board": 2, "Census Tract": 15 }, "geometry": { "type": "Point", "coordinates": [ -73.983159, 40.695983 ] } },
{ "type": "Feature", "properties": { "FacilityName": "Engine 226", "FacilityAddress": "409 State Street", "Borough": "Brooklyn", "Latitude": 40.686982, "Longitude": -73.982876, "Community Board": 2, "Census Tract": 41 }, "geometry": { "type": "Point", "coordinates": [ -73.982876, 40.686982 ] } },
{ "type": "Feature", "properties": { "FacilityName": "Engine 205\/Ladder 118", "FacilityAddress": "74 Middagh Street", "Borough": "Brooklyn", "Latitude": 40.700172, "Longitude": -73.992239, "Community Board": 2, "Census Tract": 1 }, "geometry": { "type": "Point", "coordinates": [ -73.992239, 40.700172 ] } },
{ "type": "Feature", "properties": { "FacilityName": "Engine 224", "FacilityAddress": "274 Hicks Street", "Borough": "Brooklyn", "Latitude": 40.692948, "Longitude": -73.996971, "Community Board": 2, "Census Tract": 7 }, "geometry": { "type": "Point", "coordinates": [ -73.996971, 40.692948 ] } },
{ "type": "Feature", "properties": { "FacilityName": "Engine 279\/Ladder 131", "FacilityAddress": "252 Lorraine Street", "Borough": "Brooklyn", "Latitude": 40.672335, "Longitude": -73.999611, "Community Board": 6, "Census Tract": 53 }, "geometry": { "type": "Point", "coordinates": [ -73.999611, 40.672335 ] } },
{ "type": "Feature", "properties": { "FacilityName": "Engine 202\/Ladder 101\/Battalion 32", "FacilityAddress": "31 Richards Street", "Borough": "Brooklyn", "Latitude": 40.680489, "Longitude": -74.006522, "Community Board": 6, "Census Tract": 59 }, "geometry": { "type": "Point", "coordinates": [ -74.006522, 40.680489 ] } },
{ "type": "Feature", "properties": { "FacilityName": "Engine 228", "FacilityAddress": "436 39th Street", "Borough": "Brooklyn", "Latitude": 40.652045, "Longitude": -74.005218, "Community Board": 7, "Census Tract": 84 }, "geometry": { "type": "Point", "coordinates": [ -74.005218, 40.652045 ] } },
{ "type": "Feature", "properties": { "FacilityName": "Engine 201\/Ladder 114\/Battalion 40", "FacilityAddress": "5113-5117 4th Avenue", "Borough": "Brooklyn", "Latitude": 40.645773, "Longitude": -74.01329, "Community Board": 7, "Census Tract": 78 }, "geometry": { "type": "Point", "coordinates": [ -74.01329, 40.645773 ] } },
{ "type": "Feature", "properties": { "FacilityName": "Squad 1", "FacilityAddress": "788 Union Street", "Borough": "Brooklyn", "Latitude": 40.674858, "Longitude": -73.976491, "Community Board": 6, "Census Tract": 157 }, "geometry": { "type": "Point", "coordinates": [ -73.976491, 40.674858 ] } },
{ "type": "Feature", "properties": { "FacilityName": "Engine 239", "FacilityAddress": "395 4th Avenue", "Borough": "Brooklyn", "Latitude": 40.671829, "Longitude": -73.987476, "Community Board": 6, "Census Tract": 137 }, "geometry": { "type": "Point", "coordinates": [ -73.987476, 40.671829 ] } },
{ "type": "Feature", "properties": { "FacilityName": "Engine 220\/Ladder 122", "FacilityAddress": "530-532 11th Street", "Borough": "Brooklyn", "Latitude": 40.665115, "Longitude": -73.981408, "Community Board": 6, "Census Tract": 151 }, "geometry": { "type": "Point", "coordinates": [ -73.981408, 40.665115 ] } },
{ "type": "Feature", "properties": { "FacilityName": "Ladder 105", "FacilityAddress": "494 Dean Street", "Borough": "Brooklyn", "Latitude": 40.681357, "Longitude": -73.973561, "Community Board": 8, "Census Tract": 161 }, "geometry": { "type": "Point", "coordinates": [ -73.973561, 40.681357 ] } },
{ "type": "Feature", "properties": { "FacilityName": "Engine 280\/Ladder 132", "FacilityAddress": "489-91 Saint Johnï¿½s Place", "Borough": "Brooklyn", "Latitude": null, "Longitude": null, "Community Board": null, "Census Tract": null }, "geometry": null },
{ "type": "Feature", "properties": { "FacilityName": "Rescue 2", "FacilityAddress": "1472 Bergen Street", "Borough": "Brooklyn", "Latitude": 40.675264, "Longitude": -73.934917, "Community Board": 8, "Census Tract": 345 }, "geometry": { "type": "Point", "coordinates": [ -73.934917, 40.675264 ] } },
{ "type": "Feature", "properties": { "FacilityName": "Engine 234\/Ladder 123\/Battalion 38", "FacilityAddress": "1352 Saint Johnï¿½s Place", "Borough": "Brooklyn", "Latitude": null, "Longitude": null, "Community Board": null, "Census Tract": null }, "geometry": null },
{ "type": "Feature", "properties": { "FacilityName": "Engine 227", "FacilityAddress": "423-25 Ralph Avenue", "Borough": "Brooklyn", "Latitude": 40.674798, "Longitude": -73.922015, "Community Board": 16, "Census Tract": 303 }, "geometry": { "type": "Point", "coordinates": [ -73.922015, 40.674798 ] } },
{ "type": "Feature", "properties": { "FacilityName": "Engine 233\/Ladder 176", "FacilityAddress": "25 Rockaway Avenue", "Borough": "Brooklyn", "Latitude": 40.682616, "Longitude": -73.911687, "Community Board": 16, "Census Tract": 369 }, "geometry": { "type": "Point", "coordinates": [ -73.911687, 40.682616 ] } },
{ "type": "Feature", "properties": { "FacilityName": "Engine 217", "FacilityAddress": "940 Dekalb Avenue", "Borough": "Brooklyn", "Latitude": 40.692896, "Longitude": -73.938066, "Community Board": 3, "Census Tract": 281 }, "geometry": { "type": "Point", "coordinates": [ -73.938066, 40.692896 ] } },
{ "type": "Feature", "properties": { "FacilityName": "Engine 222\/Battalion 37", "FacilityAddress": "32 Ralph Avenue", "Borough": "Brooklyn", "Latitude": 40.689385, "Longitude": -73.924006, "Community Board": 3, "Census Tract": 387 }, "geometry": { "type": "Point", "coordinates": [ -73.924006, 40.689385 ] } },
{ "type": "Feature", "properties": { "FacilityName": "Engine 214\/Ladder 111", "FacilityAddress": "495 Hancock Street", "Borough": "Brooklyn", "Latitude": 40.684161, "Longitude": -73.935957, "Community Board": 3, "Census Tract": 275 }, "geometry": { "type": "Point", "coordinates": [ -73.935957, 40.684161 ] } },
{ "type": "Feature", "properties": { "FacilityName": "Engine 230", "FacilityAddress": "701 Park Avenue", "Borough": "Brooklyn", "Latitude": 40.697792, "Longitude": -73.947874, "Community Board": 3, "Census Tract": 257 }, "geometry": { "type": "Point", "coordinates": [ -73.947874, 40.697792 ] } },
{ "type": "Feature", "properties": { "FacilityName": "Engine 235\/Battalion 57", "FacilityAddress": "206 Monroe Street", "Borough": "Brooklyn", "Latitude": 40.685357, "Longitude": -73.951464, "Community Board": 3, "Census Tract": 245 }, "geometry": { "type": "Point", "coordinates": [ -73.951464, 40.685357 ] } },
{ "type": "Feature", "properties": { "FacilityName": "Ladder 102", "FacilityAddress": "850-56 Bedford Avenue", "Borough": "Brooklyn", "Latitude": 40.695635, "Longitude": -73.956361, "Community Board": 3, "Census Tract": 1237 }, "geometry": { "type": "Point", "coordinates": [ -73.956361, 40.695635 ] } },
{ "type": "Feature", "properties": { "FacilityName": "Marine 6", "FacilityAddress": "Building 292 Brooklyn Navy Yard", "Borough": "Brooklyn", "Latitude": 40.702562, "Longitude": -73.972211, "Community Board": 2, "Census Tract": 543 }, "geometry": { "type": "Point", "coordinates": [ -73.972211, 40.702562 ] } },
{ "type": "Feature", "properties": { "FacilityName": "Engine 210", "FacilityAddress": "160 Carlton Avenue", "Borough": "Brooklyn", "Latitude": 40.692758, "Longitude": -73.972774, "Community Board": 2, "Census Tract": 183 }, "geometry": { "type": "Point", "coordinates": [ -73.972774, 40.692758 ] } },
{ "type": "Feature", "properties": { "FacilityName": "Engine 211\/Ladder 119", "FacilityAddress": "26 Hooper Street", "Borough": "Brooklyn", "Latitude": 40.701506, "Longitude": -73.962398, "Community Board": 1, "Census Tract": 539 }, "geometry": { "type": "Point", "coordinates": [ -73.962398, 40.701506 ] } },
{ "type": "Feature", "properties": { "FacilityName": "Engine 221\/Ladder 104", "FacilityAddress": "161 South 2nd Street", "Borough": "Brooklyn", "Latitude": 40.712978, "Longitude": -73.961259, "Community Board": 1, "Census Tract": 551 }, "geometry": { "type": "Point", "coordinates": [ -73.961259, 40.712978 ] } },
{ "type": "Feature", "properties": { "FacilityName": "Engine 216\/Ladder 108\/Battalion 35", "FacilityAddress": "187 Union Avenue", "Borough": "Brooklyn", "Latitude": 40.706024, "Longitude": -73.950317, "Community Board": 1, "Census Tract": 527 }, "geometry": { "type": "Point", "coordinates": [ -73.950317, 40.706024 ] } },
{ "type": "Feature", "properties": { "FacilityName": "Engine 238\/Ladder 106", "FacilityAddress": "205 Greenpoint Avenue", "Borough": "Brooklyn", "Latitude": 40.730511, "Longitude": -73.951056, "Community Board": 1, "Census Tract": 579 }, "geometry": { "type": "Point", "coordinates": [ -73.951056, 40.730511 ] } },
{ "type": "Feature", "properties": { "FacilityName": "Engine 229\/Ladder 146", "FacilityAddress": "75-77 Richardson Street", "Borough": "Brooklyn", "Latitude": 40.718405, "Longitude": -73.949027, "Community Board": 1, "Census Tract": 515 }, "geometry": { "type": "Point", "coordinates": [ -73.949027, 40.718405 ] } },
{ "type": "Feature", "properties": { "FacilityName": "Engine 206", "FacilityAddress": "1201 Grand Street", "Borough": "Brooklyn", "Latitude": 40.715147, "Longitude": -73.927956, "Community Board": 1, "Census Tract": 449 }, "geometry": { "type": "Point", "coordinates": [ -73.927956, 40.715147 ] } },
{ "type": "Feature", "properties": { "FacilityName": "Engine 237", "FacilityAddress": "43 Morgan Avenue", "Borough": "Brooklyn", "Latitude": 40.705334, "Longitude": -73.93162, "Community Board": 1, "Census Tract": 453 }, "geometry": { "type": "Point", "coordinates": [ -73.93162, 40.705334 ] } },
{ "type": "Feature", "properties": { "FacilityName": "Engine 218", "FacilityAddress": "650 Hart Street", "Borough": "Brooklyn", "Latitude": 40.698379, "Longitude": -73.926877, "Community Board": 4, "Census Tract": 423 }, "geometry": { "type": "Point", "coordinates": [ -73.926877, 40.698379 ] } },
{ "type": "Feature", "properties": { "FacilityName": "Engine 271\/Ladder 124\/Battalion 28", "FacilityAddress": "392 Himrod Street", "Borough": "Brooklyn", "Latitude": 40.703721, "Longitude": -73.916253, "Community Board": 4, "Census Tract": 443 }, "geometry": { "type": "Point", "coordinates": [ -73.916253, 40.703721 ] } },
{ "type": "Feature", "properties": { "FacilityName": "Engine 277\/Ladder 112", "FacilityAddress": "582 Knickerbocker Avenue", "Borough": "Brooklyn", "Latitude": 40.696564, "Longitude": -73.914423, "Community Board": 4, "Census Tract": 433 }, "geometry": { "type": "Point", "coordinates": [ -73.914423, 40.696564 ] } },
{ "type": "Feature", "properties": { "FacilityName": "Squad 252", "FacilityAddress": "617 Central Avenue", "Borough": "Brooklyn", "Latitude": 40.688473, "Longitude": -73.908246, "Community Board": 4, "Census Tract": 411 }, "geometry": { "type": "Point", "coordinates": [ -73.908246, 40.688473 ] } },
{ "type": "Feature", "properties": { "FacilityName": "Engine 231\/Ladder 120\/Battalion 44", "FacilityAddress": "107 Watkins Street", "Borough": "Brooklyn", "Latitude": 40.670374, "Longitude": -73.908033, "Community Board": 16, "Census Tract": 906 }, "geometry": { "type": "Point", "coordinates": [ -73.908033, 40.670374 ] } },
{ "type": "Feature", "properties": { "FacilityName": "Engine 283\/Division 15", "FacilityAddress": "885 Howard Avenue", "Borough": "Brooklyn", "Latitude": 40.660877, "Longitude": -73.918214, "Community Board": 16, "Census Tract": 894 }, "geometry": { "type": "Point", "coordinates": [ -73.918214, 40.660877 ] } },
{ "type": "Feature", "properties": { "FacilityName": "Engine 332\/Ladder 175", "FacilityAddress": "165 Bradford Street", "Borough": "Brooklyn", "Latitude": 40.675359, "Longitude": -73.892863, "Community Board": 5, "Census Tract": 1198 }, "geometry": { "type": "Point", "coordinates": [ -73.892863, 40.675359 ] } },
{ "type": "Feature", "properties": { "FacilityName": "Engine 290\/Ladder 103", "FacilityAddress": "480 Sheffield Avenue", "Borough": "Brooklyn", "Latitude": 40.665206, "Longitude": -73.895179, "Community Board": 5, "Census Tract": 1126 }, "geometry": { "type": "Point", "coordinates": [ -73.895179, 40.665206 ] } },
{ "type": "Feature", "properties": { "FacilityName": "Engine 236", "FacilityAddress": "998 Liberty Avenue", "Borough": "Brooklyn", "Latitude": 40.677864, "Longitude": -73.872853, "Community Board": 5, "Census Tract": 1196 }, "geometry": { "type": "Point", "coordinates": [ -73.872853, 40.677864 ] } },
{ "type": "Feature", "properties": { "FacilityName": "Engine 225\/Ladder 107\/Battalion 39", "FacilityAddress": "799 Lincoln Avenue", "Borough": "Brooklyn", "Latitude": 40.669602, "Longitude": -73.865685, "Community Board": 5, "Census Tract": 1208 }, "geometry": { "type": "Point", "coordinates": [ -73.865685, 40.669602 ] } },
{ "type": "Feature", "properties": { "FacilityName": "Engine 310\/Ladder 174\/Battalion 58", "FacilityAddress": "5105 Snyder Avenue", "Borough": "Brooklyn", "Latitude": 40.65019, "Longitude": -73.929035, "Community Board": 17, "Census Tract": 862 }, "geometry": { "type": "Point", "coordinates": [ -73.929035, 40.65019 ] } },
{ "type": "Feature", "properties": { "FacilityName": "Engine 249\/Ladder 113", "FacilityAddress": "491 Rogers Avenue", "Borough": "Brooklyn", "Latitude": 40.660226, "Longitude": -73.953483, "Community Board": 9, "Census Tract": 800 }, "geometry": { "type": "Point", "coordinates": [ -73.953483, 40.660226 ] } },
{ "type": "Feature", "properties": { "FacilityName": "Engine 248", "FacilityAddress": "2900 Snyder Avenue", "Borough": "Brooklyn", "Latitude": 40.648867, "Longitude": -73.950471, "Community Board": 17, "Census Tract": 824 }, "geometry": { "type": "Point", "coordinates": [ -73.950471, 40.648867 ] } },
{ "type": "Feature", "properties": { "FacilityName": "Engine 281\/Ladder 147", "FacilityAddress": "1210 Cortelyou Road", "Borough": "Brooklyn", "Latitude": 40.64012, "Longitude": -73.966847, "Community Board": 14, "Census Tract": 526 }, "geometry": { "type": "Point", "coordinates": [ -73.966847, 40.64012 ] } },
{ "type": "Feature", "properties": { "FacilityName": "Engine 255\/Ladder 157", "FacilityAddress": "1367 Rogers Avenue", "Borough": "Brooklyn", "Latitude": 40.636755, "Longitude": -73.950974, "Community Board": 14, "Census Tract": 788 }, "geometry": { "type": "Point", "coordinates": [ -73.950974, 40.636755 ] } },
{ "type": "Feature", "properties": { "FacilityName": "Engine 240\/Battalion 48", "FacilityAddress": "1307 Prospect Avenue", "Borough": "Brooklyn", "Latitude": 40.651165, "Longitude": -73.975736, "Community Board": 7, "Census Tract": 504 }, "geometry": { "type": "Point", "coordinates": [ -73.975736, 40.651165 ] } },
{ "type": "Feature", "properties": { "FacilityName": "Engine 282\/Ladder 148", "FacilityAddress": "4210-12 12th Avenue", "Borough": "Brooklyn", "Latitude": 40.640157, "Longitude": -73.990379, "Community Board": 12, "Census Tract": 224 }, "geometry": { "type": "Point", "coordinates": [ -73.990379, 40.640157 ] } },
{ "type": "Feature", "properties": { "FacilityName": "Engine 247", "FacilityAddress": "1336 60th Street", "Borough": "Brooklyn", "Latitude": 40.62835, "Longitude": -73.997741, "Community Board": 12, "Census Tract": 192 }, "geometry": { "type": "Point", "coordinates": [ -73.997741, 40.62835 ] } },
{ "type": "Feature", "properties": { "FacilityName": "Engine 241\/Ladder 109", "FacilityAddress": "6630 3rd Avenue", "Borough": "Brooklyn", "Latitude": 40.638064, "Longitude": -74.024825, "Community Board": 10, "Census Tract": 70 }, "geometry": { "type": "Point", "coordinates": [ -74.024825, 40.638064 ] } },
{ "type": "Feature", "properties": { "FacilityName": "Engine 242", "FacilityAddress": "9219 5th Avenue", "Borough": "Brooklyn", "Latitude": 40.617597, "Longitude": -74.029547, "Community Board": 10, "Census Tract": 160 }, "geometry": { "type": "Point", "coordinates": [ -74.029547, 40.617597 ] } },
{ "type": "Feature", "properties": { "FacilityName": "Engine 284\/Ladder 149", "FacilityAddress": "1157 79th Street", "Borough": "Brooklyn", "Latitude": 40.619961, "Longitude": -74.012986, "Community Board": 10, "Census Tract": 202 }, "geometry": { "type": "Point", "coordinates": [ -74.012986, 40.619961 ] } },
{ "type": "Feature", "properties": { "FacilityName": "Engine 243\/Ladder 168\/Battalion 42", "FacilityAddress": "8653 18th Avenue", "Borough": "Brooklyn", "Latitude": 40.606301, "Longitude": -74.003637, "Community Board": 11, "Census Tract": 278 }, "geometry": { "type": "Point", "coordinates": [ -74.003637, 40.606301 ] } },
{ "type": "Feature", "properties": { "FacilityName": "Engine 250", "FacilityAddress": "126 Foster Avenue", "Borough": "Brooklyn", "Latitude": 40.627771, "Longitude": -73.976148, "Community Board": 14, "Census Tract": 46201 }, "geometry": { "type": "Point", "coordinates": [ -73.976148, 40.627771 ] } },
{ "type": "Feature", "properties": { "FacilityName": "Engine 330\/Ladder 172 ", "FacilityAddress": "2312 65th Street", "Borough": "Brooklyn", "Latitude": 40.612343, "Longitude": -73.978973, "Community Board": 11, "Census Tract": 434 }, "geometry": { "type": "Point", "coordinates": [ -73.978973, 40.612343 ] } },
{ "type": "Feature", "properties": { "FacilityName": "Engine 276\/Ladder 156\/Battalion 33", "FacilityAddress": "1635 East 14th Street", "Borough": "Brooklyn", "Latitude": 40.609428, "Longitude": -73.959346, "Community Board": 15, "Census Tract": 554 }, "geometry": { "type": "Point", "coordinates": [ -73.959346, 40.609428 ] } },
{ "type": "Feature", "properties": { "FacilityName": "Engine 253", "FacilityAddress": "2429 86th Street", "Borough": "Brooklyn", "Latitude": 40.598744, "Longitude": -73.988542, "Community Board": 11, "Census Tract": 298 }, "geometry": { "type": "Point", "coordinates": [ -73.988542, 40.598744 ] } },
{ "type": "Feature", "properties": { "FacilityName": "Engine 318\/Ladder 166", "FacilityAddress": "2510-14 Neptune Avenue", "Borough": "Brooklyn", "Latitude": 40.578073, "Longitude": -73.992901, "Community Board": 13, "Census Tract": 328 }, "geometry": { "type": "Point", "coordinates": [ -73.992901, 40.578073 ] } },
{ "type": "Feature", "properties": { "FacilityName": "Engine 254\/Ladder 153", "FacilityAddress": "901 Avenue U", "Borough": "Brooklyn", "Latitude": 40.59823, "Longitude": -73.961967, "Community Board": 15, "Census Tract": 394 }, "geometry": { "type": "Point", "coordinates": [ -73.961967, 40.59823 ] } },
{ "type": "Feature", "properties": { "FacilityName": "Engine 245\/Ladder 161\/Battalion 43", "FacilityAddress": "2929 West 8th Street", "Borough": "Brooklyn", "Latitude": 40.576795, "Longitude": -73.976468, "Community Board": 13, "Census Tract": 354 }, "geometry": { "type": "Point", "coordinates": [ -73.976468, 40.576795 ] } },
{ "type": "Feature", "properties": { "FacilityName": "Engine 257\/Ladder 170", "FacilityAddress": "1361 Rockaway Parkway", "Borough": "Brooklyn", "Latitude": 40.646469, "Longitude": -73.903789, "Community Board": 18, "Census Tract": 974 }, "geometry": { "type": "Point", "coordinates": [ -73.903789, 40.646469 ] } },
{ "type": "Feature", "properties": { "FacilityName": "Engine 323", "FacilityAddress": "6405 Avenue N", "Borough": "Brooklyn", "Latitude": 40.619881, "Longitude": -73.915718, "Community Board": 18, "Census Tract": 69602 }, "geometry": { "type": "Point", "coordinates": [ -73.915718, 40.619881 ] } },
{ "type": "Feature", "properties": { "FacilityName": "Engine 309\/Ladder 159", "FacilityAddress": "1851 East 48th Street", "Borough": "Brooklyn", "Latitude": 40.615732, "Longitude": -73.928488, "Community Board": 18, "Census Tract": 672 }, "geometry": { "type": "Point", "coordinates": [ -73.928488, 40.615732 ] } },
{ "type": "Feature", "properties": { "FacilityName": "Engine 246\/Ladder 169", "FacilityAddress": "2732 East 11th Street", "Borough": "Brooklyn", "Latitude": 40.584374, "Longitude": -73.959127, "Community Board": 15, "Census Tract": 608 }, "geometry": { "type": "Point", "coordinates": [ -73.959127, 40.584374 ] } },
{ "type": "Feature", "properties": { "FacilityName": "Engine 321", "FacilityAddress": "2165 Gerritsen Avenue", "Borough": "Brooklyn", "Latitude": 40.602306, "Longitude": -73.935658, "Community Board": 15, "Census Tract": 638 }, "geometry": { "type": "Point", "coordinates": [ -73.935658, 40.602306 ] } },
{ "type": "Feature", "properties": { "FacilityName": "Engine 258\/Ladder 115", "FacilityAddress": "10-40 47th Avenue", "Borough": "Queens", "Latitude": 40.745286, "Longitude": -73.95215, "Community Board": 2, "Census Tract": 7 }, "geometry": { "type": "Point", "coordinates": [ -73.95215, 40.745286 ] } },
{ "type": "Feature", "properties": { "FacilityName": "Engine 325\/Ladder 163", "FacilityAddress": "41-24 51st Street", "Borough": "Queens", "Latitude": 40.745335, "Longitude": -73.913527, "Community Board": 2, "Census Tract": 25302 }, "geometry": { "type": "Point", "coordinates": [ -73.913527, 40.745335 ] } },
{ "type": "Feature", "properties": { "FacilityName": "Engine 259\/Ladder 128\/Battalion 45", "FacilityAddress": "33-51 Greenpoint Avenue", "Borough": "Queens", "Latitude": 40.735961, "Longitude": -73.933706, "Community Board": 2, "Census Tract": 199 }, "geometry": { "type": "Point", "coordinates": [ -73.933706, 40.735961 ] } },
{ "type": "Feature", "properties": { "FacilityName": "Engine 260", "FacilityAddress": "11-15 37th Avenue", "Borough": "Queens", "Latitude": 40.759696, "Longitude": -73.940603, "Community Board": 1, "Census Tract": 85 }, "geometry": { "type": "Point", "coordinates": [ -73.940603, 40.759696 ] } },
{ "type": "Feature", "properties": { "FacilityName": "Engine 261\/Ladder 116", "FacilityAddress": "3720-22 29th Street", "Borough": "Queens", "Latitude": null, "Longitude": null, "Community Board": null, "Census Tract": null }, "geometry": null },
{ "type": "Feature", "properties": { "FacilityName": "Engine 262", "FacilityAddress": "30-89 21st Street", "Borough": "Queens", "Latitude": 40.767664, "Longitude": -73.929574, "Community Board": 1, "Census Tract": 79 }, "geometry": { "type": "Point", "coordinates": [ -73.929574, 40.767664 ] } },
{ "type": "Feature", "properties": { "FacilityName": "Engine 263\/Ladder 117\/Battalion 49", "FacilityAddress": "42-06 Astoria Boulevard", "Borough": "Queens", "Latitude": 40.768508, "Longitude": -73.908822, "Community Board": 1, "Census Tract": 141 }, "geometry": { "type": "Point", "coordinates": [ -73.908822, 40.768508 ] } },
{ "type": "Feature", "properties": { "FacilityName": "Engine 312", "FacilityAddress": "22-63 35th Street", "Borough": "Queens", "Latitude": 40.773796, "Longitude": -73.910194, "Community Board": 1, "Census Tract": 117 }, "geometry": { "type": "Point", "coordinates": [ -73.910194, 40.773796 ] } },
{ "type": "Feature", "properties": { "FacilityName": "Engine 307\/Ladder 154", "FacilityAddress": "81-17 North Boulevard", "Borough": "Queens", "Latitude": null, "Longitude": null, "Community Board": null, "Census Tract": null }, "geometry": null },
{ "type": "Feature", "properties": { "FacilityName": "Engine 289\/Ladder 138", "FacilityAddress": "97-28 43rd Avenue", "Borough": "Queens", "Latitude": 40.746168, "Longitude": -73.866158, "Community Board": 4, "Census Tract": 409 }, "geometry": { "type": "Point", "coordinates": [ -73.866158, 40.746168 ] } },
{ "type": "Feature", "properties": { "FacilityName": "Engine 316", "FacilityAddress": "27-12 Kearney Street", "Borough": "Queens", "Latitude": 40.762621, "Longitude": -73.869024, "Community Board": 3, "Census Tract": 367 }, "geometry": { "type": "Point", "coordinates": [ -73.869024, 40.762621 ] } },
{ "type": "Feature", "properties": { "FacilityName": "Engine 324\/Division 14", "FacilityAddress": "108-01 Horace Harding Blvd.", "Borough": "Queens", "Latitude": 40.737732, "Longitude": -73.851904, "Community Board": 4, "Census Tract": 43701 }, "geometry": { "type": "Point", "coordinates": [ -73.851904, 40.737732 ] } },
{ "type": "Feature", "properties": { "FacilityName": "Eng 292\/Rescue 4", "FacilityAddress": "64-18 Queens Boulevard", "Borough": "Queens", "Latitude": 40.741049, "Longitude": -73.900971, "Community Board": 2, "Census Tract": 245 }, "geometry": { "type": "Point", "coordinates": [ -73.900971, 40.741049 ] } },
{ "type": "Feature", "properties": { "FacilityName": "Squad 288\/Hazmat 1", "FacilityAddress": "56-29 68th Street", "Borough": "Queens", "Latitude": 40.72625, "Longitude": -73.896512, "Community Board": 5, "Census Tract": 511 }, "geometry": { "type": "Point", "coordinates": [ -73.896512, 40.72625 ] } },
{ "type": "Feature", "properties": { "FacilityName": "Engine 287\/Ladder 136\/Battalion 46", "FacilityAddress": "86-53 Grand Avenue", "Borough": "Queens", "Latitude": 40.736156, "Longitude": -73.87905, "Community Board": 4, "Census Tract": 475 }, "geometry": { "type": "Point", "coordinates": [ -73.87905, 40.736156 ] } },
{ "type": "Feature", "properties": { "FacilityName": "Engine 291\/Ladder 140", "FacilityAddress": "56-07 Metropolitan Avenue", "Borough": "Queens", "Latitude": 40.71295, "Longitude": -73.906791, "Community Board": 5, "Census Tract": 595 }, "geometry": { "type": "Point", "coordinates": [ -73.906791, 40.71295 ] } },
{ "type": "Feature", "properties": { "FacilityName": "Engine 305\/Ladder 151", "FacilityAddress": "111-02 Queens Boulevard", "Borough": "Queens", "Latitude": 40.718522, "Longitude": -73.837437, "Community Board": 6, "Census Tract": 76901 }, "geometry": { "type": "Point", "coordinates": [ -73.837437, 40.718522 ] } },
{ "type": "Feature", "properties": { "FacilityName": "Engine 286\/Ladder 135", "FacilityAddress": "66-44 Myrtle Avenue", "Borough": "Queens", "Latitude": 40.701448, "Longitude": -73.88674, "Community Board": 5, "Census Tract": 629 }, "geometry": { "type": "Point", "coordinates": [ -73.88674, 40.701448 ] } },
{ "type": "Feature", "properties": { "FacilityName": "Engine 319", "FacilityAddress": "78-11 67th Road", "Borough": "Queens", "Latitude": 40.712445, "Longitude": -73.875009, "Community Board": 5, "Census Tract": 621 }, "geometry": { "type": "Point", "coordinates": [ -73.875009, 40.712445 ] } },
{ "type": "Feature", "properties": { "FacilityName": "Engine 297\/Ladder 130", "FacilityAddress": "119-11 14th Road", "Borough": "Queens", "Latitude": 40.784806, "Longitude": -73.848387, "Community Board": 7, "Census Tract": 929 }, "geometry": { "type": "Point", "coordinates": [ -73.848387, 40.784806 ] } },
{ "type": "Feature", "properties": { "FacilityName": "Engine 295\/Ladder 144", "FacilityAddress": "12-49 149th Street", "Borough": "Queens", "Latitude": 40.789118, "Longitude": -73.81633, "Community Board": 7, "Census Tract": 981 }, "geometry": { "type": "Point", "coordinates": [ -73.81633, 40.789118 ] } },
{ "type": "Feature", "properties": { "FacilityName": "Engine 273\/Ladder 129", "FacilityAddress": "40-18 Union Street", "Borough": "Queens", "Latitude": 40.760003, "Longitude": -73.826312, "Community Board": 7, "Census Tract": 853 }, "geometry": { "type": "Point", "coordinates": [ -73.826312, 40.760003 ] } },
{ "type": "Feature", "properties": { "FacilityName": "Engine 274\/Battalion 52", "FacilityAddress": "41-20 Murray Street", "Borough": "Queens", "Latitude": 40.762562, "Longitude": -73.812512, "Community Board": 7, "Census Tract": 1167 }, "geometry": { "type": "Point", "coordinates": [ -73.812512, 40.762562 ] } },
{ "type": "Feature", "properties": { "FacilityName": "Engine 320\/Ladder 167", "FacilityAddress": "36-18 Francis Lewis Boulevard", "Borough": "Queens", "Latitude": 40.763428, "Longitude": -73.786616, "Community Board": 11, "Census Tract": 1139 }, "geometry": { "type": "Point", "coordinates": [ -73.786616, 40.763428 ] } },
{ "type": "Feature", "properties": { "FacilityName": "Engine 306\/Battalion 53", "FacilityAddress": "40-18 214th Place", "Borough": "Queens", "Latitude": 40.764348, "Longitude": -73.769596, "Community Board": 11, "Census Tract": 1123 }, "geometry": { "type": "Point", "coordinates": [ -73.769596, 40.764348 ] } },
{ "type": "Feature", "properties": { "FacilityName": "Engine 315\/Ladder 125", "FacilityAddress": "159-06 Union Turnpike", "Borough": "Queens", "Latitude": 40.720329, "Longitude": -73.807761, "Community Board": 8, "Census Tract": 1265 }, "geometry": { "type": "Point", "coordinates": [ -73.807761, 40.720329 ] } },
{ "type": "Feature", "properties": { "FacilityName": "Engine 299\/Ladder 152", "FacilityAddress": "61-20 Utopia Parkway", "Borough": "Queens", "Latitude": 40.738613, "Longitude": -73.792967, "Community Board": 8, "Census Tract": 1341 }, "geometry": { "type": "Point", "coordinates": [ -73.792967, 40.738613 ] } },
{ "type": "Feature", "properties": { "FacilityName": "Engine 326\/Ladder 160", "FacilityAddress": "64-04 Springfield Boulevard", "Borough": "Queens", "Latitude": 40.747071, "Longitude": -73.755681, "Community Board": 11, "Census Tract": 1367 }, "geometry": { "type": "Point", "coordinates": [ -73.755681, 40.747071 ] } },
{ "type": "Feature", "properties": { "FacilityName": "Engine 313\/Ladder 164", "FacilityAddress": "44-01 244th Street", "Borough": "Queens", "Latitude": 40.766659, "Longitude": -73.742451, "Community Board": 11, "Census Tract": 1479 }, "geometry": { "type": "Point", "coordinates": [ -73.742451, 40.766659 ] } },
{ "type": "Feature", "properties": { "FacilityName": "Engine 251", "FacilityAddress": "254-20 Union Turnpike", "Borough": "Queens", "Latitude": 40.744582, "Longitude": -73.716559, "Community Board": 13, "Census Tract": 157902 }, "geometry": { "type": "Point", "coordinates": [ -73.716559, 40.744582 ] } },
{ "type": "Feature", "properties": { "FacilityName": "Engine 293", "FacilityAddress": "89-40 87th Street", "Borough": "Queens", "Latitude": 40.689493, "Longitude": -73.856104, "Community Board": 9, "Census Tract": 8 }, "geometry": { "type": "Point", "coordinates": [ -73.856104, 40.689493 ] } },
{ "type": "Feature", "properties": { "FacilityName": "Engine 285\/Ladder 142", "FacilityAddress": "103-17 98th Street", "Borough": "Queens", "Latitude": 40.682684, "Longitude": -73.842194, "Community Board": 10, "Census Tract": 4002 }, "geometry": { "type": "Point", "coordinates": [ -73.842194, 40.682684 ] } },
{ "type": "Feature", "properties": { "FacilityName": "Ladder 143", "FacilityAddress": "101-02 Jamaica Avenue", "Borough": "Queens", "Latitude": 40.695038, "Longitude": -73.846268, "Community Board": 9, "Census Tract": 28 }, "geometry": { "type": "Point", "coordinates": [ -73.846268, 40.695038 ] } },
{ "type": "Feature", "properties": { "FacilityName": "Squad 270\/Division 13", "FacilityAddress": "91-45 121st Street", "Borough": "Queens", "Latitude": 40.695411, "Longitude": -73.82626, "Community Board": 9, "Census Tract": 14202 }, "geometry": { "type": "Point", "coordinates": [ -73.82626, 40.695411 ] } },
{ "type": "Feature", "properties": { "FacilityName": "Engine 308\/Battalion 51", "FacilityAddress": "107-12 Lefferts Boulevard", "Borough": "Queens", "Latitude": 40.684043, "Longitude": -73.823106, "Community Board": 10, "Census Tract": 106 }, "geometry": { "type": "Point", "coordinates": [ -73.823106, 40.684043 ] } },
{ "type": "Feature", "properties": { "FacilityName": "Engine 298\/Ladder 127\/Battalion 50", "FacilityAddress": "153-11 Hillside Avenue", "Borough": "Queens", "Latitude": 40.70731, "Longitude": -73.804242, "Community Board": 8, "Census Tract": 236 }, "geometry": { "type": "Point", "coordinates": [ -73.804242, 40.70731 ] } },
{ "type": "Feature", "properties": { "FacilityName": "Engine 303\/Ladder 126", "FacilityAddress": "104-12 Princeton Street", "Borough": "Queens", "Latitude": 40.693876, "Longitude": -73.806943, "Community Board": 12, "Census Tract": 204 }, "geometry": { "type": "Point", "coordinates": [ -73.806943, 40.693876 ] } },
{ "type": "Feature", "properties": { "FacilityName": "Engine 275", "FacilityAddress": "111-36 Merrick Boulevard", "Borough": "Queens", "Latitude": 40.694052, "Longitude": -73.781115, "Community Board": 12, "Census Tract": 266 }, "geometry": { "type": "Point", "coordinates": [ -73.781115, 40.694052 ] } },
{ "type": "Feature", "properties": { "FacilityName": "Engine 301\/Ladder 150", "FacilityAddress": "91-04 197th Street", "Borough": "Queens", "Latitude": 40.714494, "Longitude": -73.762763, "Community Board": 12, "Census Tract": 484 }, "geometry": { "type": "Point", "coordinates": [ -73.762763, 40.714494 ] } },
{ "type": "Feature", "properties": { "FacilityName": "Engine 304\/Ladder 162", "FacilityAddress": "218-44 97th Avenue", "Borough": "Queens", "Latitude": 40.71706, "Longitude": -73.735871, "Community Board": 13, "Census Tract": 568 }, "geometry": { "type": "Point", "coordinates": [ -73.735871, 40.71706 ] } },
{ "type": "Feature", "properties": { "FacilityName": "Engine 302\/Ladder 155", "FacilityAddress": "143-15 Rockaway Boulevard", "Borough": "Queens", "Latitude": 40.673836, "Longitude": -73.795461, "Community Board": 12, "Census Tract": 182 }, "geometry": { "type": "Point", "coordinates": [ -73.795461, 40.673836 ] } },
{ "type": "Feature", "properties": { "FacilityName": "Engine 317\/Ladder 165\/Battalion 54", "FacilityAddress": "117-11 196th Street", "Borough": "Queens", "Latitude": 40.69301, "Longitude": -73.755814, "Community Board": 12, "Census Tract": 394 }, "geometry": { "type": "Point", "coordinates": [ -73.755814, 40.69301 ] } },
{ "type": "Feature", "properties": { "FacilityName": "Engine 311\/Ladder 158", "FacilityAddress": "145-50 Springfield Boulevard", "Borough": "Queens", "Latitude": 40.663404, "Longitude": -73.759473, "Community Board": 13, "Census Tract": 320 }, "geometry": { "type": "Point", "coordinates": [ -73.759473, 40.663404 ] } },
{ "type": "Feature", "properties": { "FacilityName": "Engine 314", "FacilityAddress": "142-04 Brookville Boulevard", "Borough": "Queens", "Latitude": 40.663992, "Longitude": -73.740515, "Community Board": 13, "Census Tract": 654 }, "geometry": { "type": "Point", "coordinates": [ -73.740515, 40.663992 ] } },
{ "type": "Feature", "properties": { "FacilityName": "Engine 331\/Ladder 173", "FacilityAddress": "158-57 Cross Bay Boulevard", "Borough": "Queens", "Latitude": 40.65993, "Longitude": -73.840045, "Community Board": 10, "Census Tract": 892 }, "geometry": { "type": "Point", "coordinates": [ -73.840045, 40.65993 ] } },
{ "type": "Feature", "properties": { "FacilityName": "Engine 264\/Engine 328\/Ladder 134", "FacilityAddress": "16-15 Central Avenue", "Borough": "Queens", "Latitude": 40.604897, "Longitude": -73.752226, "Community Board": 14, "Census Tract": 103202 }, "geometry": { "type": "Point", "coordinates": [ -73.752226, 40.604897 ] } },
{ "type": "Feature", "properties": { "FacilityName": "Engine 265\/Ladder 121\/Battalion 47 EMS Station 47", "FacilityAddress": "48-06 Rockaway Beach Boulevard", "Borough": "Queens", "Latitude": 40.593377, "Longitude": -73.778978, "Community Board": 14, "Census Tract": 97204 }, "geometry": { "type": "Point", "coordinates": [ -73.778978, 40.593377 ] } },
{ "type": "Feature", "properties": { "FacilityName": "Engine 266\/Battalion 47", "FacilityAddress": "92-20 Rockaway Beach Boulevard", "Borough": "Queens", "Latitude": 40.58633, "Longitude": -73.815775, "Community Board": 14, "Census Tract": 94202 }, "geometry": { "type": "Point", "coordinates": [ -73.815775, 40.58633 ] } },
{ "type": "Feature", "properties": { "FacilityName": "Engine 268\/Ladder 137", "FacilityAddress": "257 Beach 116th Street", "Borough": "Queens", "Latitude": 40.580627, "Longitude": -73.837683, "Community Board": 14, "Census Tract": 93402 }, "geometry": { "type": "Point", "coordinates": [ -73.837683, 40.580627 ] } },
{ "type": "Feature", "properties": { "FacilityName": "Engine 329", "FacilityAddress": "402 Beach 169th Street", "Borough": "Queens", "Latitude": 40.566034, "Longitude": -73.881874, "Community Board": 84, "Census Tract": 918 }, "geometry": { "type": "Point", "coordinates": [ -73.881874, 40.566034 ] } },
{ "type": "Feature", "properties": { "FacilityName": "Marine 9", "FacilityAddress": "Saint George Ferry Terminal", "Borough": "Staten Island", "Latitude": 40.644112, "Longitude": -74.072559, "Community Board": 1, "Census Tract": 3 }, "geometry": { "type": "Point", "coordinates": [ -74.072559, 40.644112 ] } },
{ "type": "Feature", "properties": { "FacilityName": "Engine 155\/Ladder 78", "FacilityAddress": "14 Brighton Avenue", "Borough": "Staten Island", "Latitude": 40.637734, "Longitude": -74.087746, "Community Board": 1, "Census Tract": 77 }, "geometry": { "type": "Point", "coordinates": [ -74.087746, 40.637734 ] } },
{ "type": "Feature", "properties": { "FacilityName": "Ladder 79\/Battalion 22", "FacilityAddress": "1189 Castleton Avenue", "Borough": "Staten Island", "Latitude": 40.63415, "Longitude": -74.122199, "Community Board": 1, "Census Tract": 13302 }, "geometry": { "type": "Point", "coordinates": [ -74.122199, 40.63415 ] } },
{ "type": "Feature", "properties": { "FacilityName": "Engine 156", "FacilityAddress": "412 Broadway", "Borough": "Staten Island", "Latitude": 40.631093, "Longitude": -74.116574, "Community Board": 1, "Census Tract": 125 }, "geometry": { "type": "Point", "coordinates": [ -74.116574, 40.631093 ] } },
{ "type": "Feature", "properties": { "FacilityName": "Engine 163\/Ladder 83", "FacilityAddress": "875 Jewett Avenue", "Borough": "Staten Island", "Latitude": 40.615251, "Longitude": -74.130971, "Community Board": 1, "Census Tract": 151 }, "geometry": { "type": "Point", "coordinates": [ -74.130971, 40.615251 ] } },
{ "type": "Feature", "properties": { "FacilityName": "Engine 153\/Ladder 77", "FacilityAddress": "74 Broad Street", "Borough": "Staten Island", "Latitude": 40.625167, "Longitude": -74.077772, "Community Board": 1, "Census Tract": 27 }, "geometry": { "type": "Point", "coordinates": [ -74.077772, 40.625167 ] } },
{ "type": "Feature", "properties": { "FacilityName": "Engine 165\/Ladder 85", "FacilityAddress": "3067 Richmond Road", "Borough": "Staten Island", "Latitude": 40.575827, "Longitude": -74.123727, "Community Board": 2, "Census Tract": 181 }, "geometry": { "type": "Point", "coordinates": [ -74.123727, 40.575827 ] } },
{ "type": "Feature", "properties": { "FacilityName": "Engine 157\/Ladder 80", "FacilityAddress": "1573 Castleton Avenue", "Borough": "Staten Island", "Latitude": 40.636052, "Longitude": -74.135343, "Community Board": 1, "Census Tract": 207 }, "geometry": { "type": "Point", "coordinates": [ -74.135343, 40.636052 ] } },
{ "type": "Feature", "properties": { "FacilityName": "Engine 158", "FacilityAddress": "65 Harbor Road", "Borough": "Staten Island", "Latitude": 40.635547, "Longitude": -74.160224, "Community Board": 1, "Census Tract": 223 }, "geometry": { "type": "Point", "coordinates": [ -74.160224, 40.635547 ] } },
{ "type": "Feature", "properties": { "FacilityName": "Engine 166\/Ladder 86", "FacilityAddress": "1400 Richmond Avenue", "Borough": "Staten Island", "Latitude": 40.614265, "Longitude": -74.157735, "Community Board": 2, "Census Tract": 29104 }, "geometry": { "type": "Point", "coordinates": [ -74.157735, 40.614265 ] } },
{ "type": "Feature", "properties": { "FacilityName": "Engine 154\/District Office 8\/ Staten Island Borough Command", "FacilityAddress": "3730 Victory Boulevard", "Borough": "Staten Island", "Latitude": 40.598213, "Longitude": -74.180462, "Community Board": 2, "Census Tract": 29102 }, "geometry": { "type": "Point", "coordinates": [ -74.180462, 40.598213 ] } },
{ "type": "Feature", "properties": { "FacilityName": "Engine 152\/Battalion 21", "FacilityAddress": "256 Hylan Boulevard", "Borough": "Staten Island", "Latitude": 40.611873, "Longitude": -74.070467, "Community Board": 1, "Census Tract": 8 }, "geometry": { "type": "Point", "coordinates": [ -74.070467, 40.611873 ] } },
{ "type": "Feature", "properties": { "FacilityName": "Engine 161\/Ladder 81", "FacilityAddress": "278 Mc Clean Avenue", "Borough": "Staten Island", "Latitude": 40.596826, "Longitude": -74.070138, "Community Board": 2, "Census Tract": 74 }, "geometry": { "type": "Point", "coordinates": [ -74.070138, 40.596826 ] } },
{ "type": "Feature", "properties": { "FacilityName": "Engine 160\/Rescue 5\/Division 8", "FacilityAddress": "1850 Clove Road", "Borough": "Staten Island", "Latitude": 40.607485, "Longitude": -74.089111, "Community Board": 2, "Census Tract": 50 }, "geometry": { "type": "Point", "coordinates": [ -74.089111, 40.607485 ] } },
{ "type": "Feature", "properties": { "FacilityName": "Engine 159", "FacilityAddress": "1592 Richmond Road", "Borough": "Staten Island", "Latitude": 40.590935, "Longitude": -74.100895, "Community Board": 2, "Census Tract": 9602 }, "geometry": { "type": "Point", "coordinates": [ -74.100895, 40.590935 ] } },
{ "type": "Feature", "properties": { "FacilityName": "Engine 162\/Ladder 82\/Battalion 23", "FacilityAddress": "256 Nelson Avenue", "Borough": "Staten Island", "Latitude": 40.543205, "Longitude": -74.147097, "Community Board": 3, "Census Tract": 15601 }, "geometry": { "type": "Point", "coordinates": [ -74.147097, 40.543205 ] } },
{ "type": "Feature", "properties": { "FacilityName": "Engine 167\/Ladder 87", "FacilityAddress": "345 Annadale Road", "Borough": "Staten Island", "Latitude": 40.554174, "Longitude": -74.175809, "Community Board": 3, "Census Tract": 17012 }, "geometry": { "type": "Point", "coordinates": [ -74.175809, 40.554174 ] } },
{ "type": "Feature", "properties": { "FacilityName": "Engine 164\/Ladder 84", "FacilityAddress": "1560 Drumgoole Road West", "Borough": "Staten Island", "Latitude": 40.535332, "Longitude": -74.195611, "Community Board": 3, "Census Tract": 20804 }, "geometry": { "type": "Point", "coordinates": [ -74.195611, 40.535332 ] } },
{ "type": "Feature", "properties": { "FacilityName": "Engine 168\/EMS Station 23", "FacilityAddress": "1100 Rossville Avenue", "Borough": "Staten Island", "Latitude": 40.553977, "Longitude": -74.212812, "Community Board": 3, "Census Tract": 20801 }, "geometry": { "type": "Point", "coordinates": [ -74.212812, 40.553977 ] } },
{ "type": "Feature", "properties": { "FacilityName": "Engine 151\/Ladder 76", "FacilityAddress": "7219 Amboy Road", "Borough": "Staten Island", "Latitude": 40.512518, "Longitude": -74.238822, "Community Board": 3, "Census Tract": 248 }, "geometry": { "type": "Point", "coordinates": [ -74.238822, 40.512518 ] } }
]
}
